{"status": "OK", "results": [{"geometry": {"location_type": "RANGE_INTERPOLATED", "bounds": {"northeast": {"lat": 42.5212872, "lng": -93.2716439}, "southwest": {"lat": 42.51962839999999, "lng": -93.2722665}}, "viewport": {"northeast": {"lat": 42.5218067802915, "lng": -93.2706062197085}, "southwest": {"lat": 42.5191088197085, "lng": -93.2733041802915}}, "location": {"lat": 42.5206086, "lng": -93.27222259999999}}, "address_components": [{"long_name": "300-498", "types": ["street_number"], "short_name": "300-498"}, {"long_name": "Foster Boulevard", "types": ["route"], "short_name": "Foster Blvd"}, {"long_name": "Iowa Falls", "types": ["locality", "political"], "short_name": "Iowa Falls"}, {"long_name": "Hardin", "types": ["administrative_area_level_3", "political"], "short_name": "Hardin"}, {"long_name": "Hardin County", "types": ["administrative_area_level_2", "political"], "short_name": "Hardin County"}, {"long_name": "Iowa", "types": ["administrative_area_level_1", "political"], "short_name": "IA"}, {"long_name": "United States", "types": ["country", "political"], "short_name": "US"}, {"long_name": "50126", "types": ["postal_code"], "short_name": "50126"}, {"long_name": "1909", "types": ["postal_code_suffix"], "short_name": "1909"}], "place_id": "Ei4zMDAtNDk4IEZvc3RlciBCbHZkLCBJb3dhIEZhbGxzLCBJQSA1MDEyNiwgVVNB", "formatted_address": "300-498 Foster Blvd, Iowa Falls, IA 50126, USA", "types": ["street_address"]}, {"geometry": {"location_type": "APPROXIMATE", "bounds": {"northeast": {"lat": 42.537178, "lng": -93.2418479}, "southwest": {"lat": 42.490991, "lng": -93.299722}}, "viewport": {"northeast": {"lat": 42.537178, "lng": -93.2418479}, "southwest": {"lat": 42.490991, "lng": -93.299722}}, "location": {"lat": 42.51988679999999, "lng": -93.26457409999999}}, "address_components": [{"long_name": "Iowa Falls", "types": ["locality", "political"], "short_name": "Iowa Falls"}, {"long_name": "Hardin", "types": ["administrative_area_level_3", "political"], "short_name": "Hardin"}, {"long_name": "Hardin County", "types": ["administrative_area_level_2", "political"], "short_name": "Hardin County"}, {"long_name": "Iowa", "types": ["administrative_area_level_1", "political"], "short_name": "IA"}, {"long_name": "United States", "types": ["country", "political"], "short_name": "US"}, {"long_name": "50126", "types": ["postal_code"], "short_name": "50126"}], "place_id": "ChIJgx3-uOXX8YcRGVlU03Yolwg", "formatted_address": "Iowa Falls, IA 50126, USA", "types": ["locality", "political"]}, {"geometry": {"location_type": "APPROXIMATE", "bounds": {"northeast": {"lat": 42.5573779, "lng": -93.144583}, "southwest": {"lat": 42.470414, "lng": -93.32135489999999}}, "viewport": {"northeast": {"lat": 42.5573779, "lng": -93.144583}, "southwest": {"lat": 42.470414, "lng": -93.32135489999999}}, "location": {"lat": 42.5249557, "lng": -93.23825099999999}}, "address_components": [{"long_name": "Hardin", "types": ["administrative_area_level_3", "political"], "short_name": "Hardin"}, {"long_name": "Hardin County", "types": ["administrative_area_level_2", "political"], "short_name": "Hardin County"}, {"long_name": "Iowa", "types": ["administrative_area_level_1", "political"], "short_name": "IA"}, {"long_name": "United States", "types": ["country", "political"], "short_name": "US"}], "place_id": "ChIJS8WudujX8YcR5zhYUiFIbwE", "formatted_address": "Hardin, IA, USA", "types": ["administrative_area_level_3", "political"]}, {"geometry": {"location_type": "APPROXIMATE", "bounds": {"northeast": {"lat": 42.637218, "lng": -93.1293951}, "southwest": {"lat": 42.383126, "lng": -93.3494829}}, "viewport": {"northeast": {"lat": 42.637218, "lng": -93.1293951}, "southwest": {"lat": 42.383126, "lng": -93.3494829}}, "location": {"lat": 42.4666849, "lng": -93.21814769999999}}, "address_components": [{"long_name": "50126", "types": ["postal_code"], "short_name": "50126"}, {"long_name": "Iowa Falls", "types": ["locality", "political"], "short_name": "Iowa Falls"}, {"long_name": "Iowa", "types": ["administrative_area_level_1", "political"], "short_name": "IA"}, {"long_name": "United States", "types": ["country", "political"], "short_name": "US"}], "place_id": "ChIJZ4N3K9LX8YcRmVnQhBxmIeI", "formatted_address": "Iowa Falls, IA 50126, USA", "types": ["postal_code"]}, {"geometry": {"location_type": "APPROXIMATE", "bounds": {"northeast": {"lat": 42.5577, "lng": -93.001674}, "southwest": {"lat": 42.208697, "lng": -93.4996039}}, "viewport": {"northeast": {"lat": 42.5577, "lng": -93.001674}, "southwest": {"lat": 42.208697, "lng": -93.4996039}}, "location": {"lat": 42.4285425, "lng": -93.17796589999999}}, "address_components": [{"long_name": "Hardin County", "types": ["administrative_area_level_2", "political"], "short_name": "Hardin County"}, {"long_name": "Iowa", "types": ["administrative_area_level_1", "political"], "short_name": "IA"}, {"long_name": "United States", "types": ["country", "political"], "short_name": "US"}], "place_id": "ChIJ37Utn9Mu7ocRaVM9AM-Fp2c", "formatted_address": "Hardin County, IA, USA", "types": ["administrative_area_level_2", "political"]}, {"geometry": {"location_type": "APPROXIMATE", "bounds": {"northeast": {"lat": 43.5011961, "lng": -90.1400609}, "southwest": {"lat": 40.375437, "lng": -96.639535}}, "viewport": {"northeast": {"lat": 43.5011961, "lng": -90.1400609}, "southwest": {"lat": 40.375437, "lng": -96.639535}}, "location": {"lat": 41.8780025, "lng": -93.097702}}, "address_components": [{"long_name": "Iowa", "types": ["administrative_area_level_1", "political"], "short_name": "IA"}, {"long_name": "United States", "types": ["country", "political"], "short_name": "US"}], "place_id": "ChIJGWD48W9e7ocR2VnHV0pj78Y", "formatted_address": "Iowa, USA", "types": ["administrative_area_level_1", "political"]}, {"geometry": {"location_type": "APPROXIMATE", "bounds": {"northeast": {"lat": 71.5388001, "lng": -66.885417}, "southwest": {"lat": 18.7763, "lng": 170.5957}}, "viewport": {"northeast": {"lat": 49.38, "lng": -66.94}, "southwest": {"lat": 25.82, "lng": -124.39}}, "location": {"lat": 37.09024, "lng": -95.712891}}, "address_components": [{"long_name": "United States", "types": ["country", "political"], "short_name": "US"}], "place_id": "ChIJCzYy5IS16lQRQrfeQ5K5Oxw", "formatted_address": "United States", "types": ["country", "political"]}], "original": "More likely location for #68"}