{"status": "OK", "results": [{"geometry": {"location_type": "RANGE_INTERPOLATED", "bounds": {"northeast": {"lat": 42.4795608, "lng": -79.3334725}, "southwest": {"lat": 42.4794431, "lng": -79.33423189999999}}, "viewport": {"northeast": {"lat": 42.4808509302915, "lng": -79.3325032197085}, "southwest": {"lat": 42.4781529697085, "lng": -79.3352011802915}}, "location": {"lat": 42.4795036, "lng": -79.3339329}}, "address_components": [{"long_name": "2-10", "types": ["street_number"], "short_name": "2-10"}, {"long_name": "West 6th Street", "types": ["route"], "short_name": "W 6th St"}, {"long_name": "Dunkirk", "types": ["locality", "political"], "short_name": "Dunkirk"}, {"long_name": "Chautauqua County", "types": ["administrative_area_level_2", "political"], "short_name": "Chautauqua County"}, {"long_name": "New York", "types": ["administrative_area_level_1", "political"], "short_name": "NY"}, {"long_name": "United States", "types": ["country", "political"], "short_name": "US"}, {"long_name": "14048", "types": ["postal_code"], "short_name": "14048"}], "place_id": "EiUyLTEwIFcgNnRoIFN0LCBEdW5raXJrLCBOWSAxNDA0OCwgVVNB", "formatted_address": "2-10 W 6th St, Dunkirk, NY 14048, USA", "types": ["street_address"]}, {"geometry": {"location_type": "APPROXIMATE", "bounds": {"northeast": {"lat": 42.5043489, "lng": -79.30887700000001}, "southwest": {"lat": 42.456911, "lng": -79.3633601}}, "viewport": {"northeast": {"lat": 42.5043489, "lng": -79.30887700000001}, "southwest": {"lat": 42.456911, "lng": -79.3633601}}, "location": {"lat": 42.4795019, "lng": -79.3339324}}, "address_components": [{"long_name": "Dunkirk", "types": ["locality", "political"], "short_name": "Dunkirk"}, {"long_name": "Dunkirk", "types": ["administrative_area_level_3", "political"], "short_name": "Dunkirk"}, {"long_name": "Chautauqua County", "types": ["administrative_area_level_2", "political"], "short_name": "Chautauqua County"}, {"long_name": "New York", "types": ["administrative_area_level_1", "political"], "short_name": "NY"}, {"long_name": "United States", "types": ["country", "political"], "short_name": "US"}, {"long_name": "14048", "types": ["postal_code"], "short_name": "14048"}], "place_id": "ChIJ44rScsjM0okRR6-l8Y5qcbM", "formatted_address": "Dunkirk, NY 14048, USA", "types": ["locality", "political"]}, {"postcode_localities": ["Dunkirk", "Van Buren Bay"], "geometry": {"location_type": "APPROXIMATE", "bounds": {"northeast": {"lat": 42.537275, "lng": -79.2368319}, "southwest": {"lat": 42.4392641, "lng": -79.420945}}, "viewport": {"northeast": {"lat": 42.537275, "lng": -79.2368319}, "southwest": {"lat": 42.4392641, "lng": -79.420945}}, "location": {"lat": 42.4916716, "lng": -79.3240228}}, "place_id": "ChIJB2TvIjXM0okRk7GL_MD9BXc", "address_components": [{"long_name": "14048", "types": ["postal_code"], "short_name": "14048"}, {"long_name": "Dunkirk", "types": ["locality", "political"], "short_name": "Dunkirk"}, {"long_name": "Chautauqua County", "types": ["administrative_area_level_2", "political"], "short_name": "Chautauqua County"}, {"long_name": "New York", "types": ["administrative_area_level_1", "political"], "short_name": "NY"}, {"long_name": "United States", "types": ["country", "political"], "short_name": "US"}], "formatted_address": "Dunkirk, NY 14048, USA", "types": ["postal_code"]}, {"geometry": {"location_type": "APPROXIMATE", "bounds": {"northeast": {"lat": 42.57020199999999, "lng": -79.0592309}, "southwest": {"lat": 41.99825500000001, "lng": -79.762152}}, "viewport": {"northeast": {"lat": 42.57020199999999, "lng": -79.0592309}, "southwest": {"lat": 41.99825500000001, "lng": -79.762152}}, "location": {"lat": 42.2842143, "lng": -79.29021329999999}}, "address_components": [{"long_name": "Jamestown-Dunkirk-Fredonia, NY", "types": ["political"], "short_name": "Jamestown-Dunkirk-Fredonia, NY"}, {"long_name": "Chautauqua County", "types": ["administrative_area_level_2", "political"], "short_name": "Chautauqua County"}, {"long_name": "New York", "types": ["administrative_area_level_1", "political"], "short_name": "NY"}, {"long_name": "United States", "types": ["country", "political"], "short_name": "US"}], "place_id": "ChIJ49w4Kbqy0okR1jCsz8Llr7o", "formatted_address": "Jamestown-Dunkirk-Fredonia, NY, NY, USA", "types": ["political"]}, {"geometry": {"location_type": "APPROXIMATE", "bounds": {"northeast": {"lat": 42.686805, "lng": -79.059209}, "southwest": {"lat": 41.99825500000001, "lng": -79.7625901}}, "viewport": {"northeast": {"lat": 42.686805, "lng": -79.059209}, "southwest": {"lat": 41.99825500000001, "lng": -79.7625901}}, "location": {"lat": 42.2312829, "lng": -79.560344}}, "address_components": [{"long_name": "Chautauqua County", "types": ["administrative_area_level_2", "political"], "short_name": "Chautauqua County"}, {"long_name": "New York", "types": ["administrative_area_level_1", "political"], "short_name": "NY"}, {"long_name": "United States", "types": ["country", "political"], "short_name": "US"}], "place_id": "ChIJR4rNe8e10okRD5lYqn0jEmY", "formatted_address": "Chautauqua County, NY, USA", "types": ["administrative_area_level_2", "political"]}, {"geometry": {"location_type": "APPROXIMATE", "bounds": {"northeast": {"lat": 45.015865, "lng": -71.777491}, "southwest": {"lat": 40.4773991, "lng": -79.7625901}}, "viewport": {"northeast": {"lat": 45.015865, "lng": -71.777491}, "southwest": {"lat": 40.4773991, "lng": -79.7625901}}, "location": {"lat": 43.2994285, "lng": -74.21793260000001}}, "address_components": [{"long_name": "New York", "types": ["administrative_area_level_1", "political"], "short_name": "NY"}, {"long_name": "United States", "types": ["country", "political"], "short_name": "US"}], "place_id": "ChIJqaUj8fBLzEwRZ5UY3sHGz90", "formatted_address": "New York, USA", "types": ["administrative_area_level_1", "political"]}, {"geometry": {"location_type": "APPROXIMATE", "bounds": {"northeast": {"lat": 71.5388001, "lng": -66.885417}, "southwest": {"lat": 18.7763, "lng": 170.5957}}, "viewport": {"northeast": {"lat": 49.38, "lng": -66.94}, "southwest": {"lat": 25.82, "lng": -124.39}}, "location": {"lat": 37.09024, "lng": -95.712891}}, "address_components": [{"long_name": "United States", "types": ["country", "political"], "short_name": "US"}], "place_id": "ChIJCzYy5IS16lQRQrfeQ5K5Oxw", "formatted_address": "United States", "types": ["country", "political"]}], "original": "Dunkirk"}