{"status": "OK", "results": [{"geometry": {"location_type": "GEOMETRIC_CENTER", "bounds": {"northeast": {"lat": 38.63876500000001, "lng": -90.2823244}, "southwest": {"lat": 38.6364034, "lng": -90.28449920000001}}, "viewport": {"northeast": {"lat": 38.6389331802915, "lng": -90.2820628197085}, "southwest": {"lat": 38.6362352197085, "lng": -90.2847607802915}}, "location": {"lat": 38.638069, "lng": -90.28377619999999}}, "address_components": [{"long_name": "Concourse Drive", "types": ["route"], "short_name": "Concourse Dr"}, {"long_name": "St. Louis", "types": ["locality", "political"], "short_name": "St. Louis"}, {"long_name": "Missouri", "types": ["administrative_area_level_1", "political"], "short_name": "MO"}, {"long_name": "United States", "types": ["country", "political"], "short_name": "US"}, {"long_name": "63110", "types": ["postal_code"], "short_name": "63110"}], "place_id": "ChIJeana2Ua12IcRSIg-UntCPa8", "formatted_address": "Concourse Dr, St. Louis, MO 63110, USA", "types": ["route"]}, {"geometry": {"location_type": "APPROXIMATE", "bounds": {"northeast": {"lat": 38.774349, "lng": -90.166409}, "southwest": {"lat": 38.5318519, "lng": -90.320515}}, "viewport": {"northeast": {"lat": 38.774349, "lng": -90.166409}, "southwest": {"lat": 38.5318519, "lng": -90.320515}}, "location": {"lat": 38.6270025, "lng": -90.19940419999999}}, "address_components": [{"long_name": "St. Louis", "types": ["locality", "political"], "short_name": "St. Louis"}, {"long_name": "Missouri", "types": ["administrative_area_level_1", "political"], "short_name": "MO"}, {"long_name": "United States", "types": ["country", "political"], "short_name": "US"}], "place_id": "ChIJ-Y7t-qm02IcRW-C7IsrqOb4", "formatted_address": "St. Louis, MO, USA", "types": ["locality", "political"]}, {"geometry": {"location_type": "APPROXIMATE", "bounds": {"northeast": {"lat": 38.6463509, "lng": -90.234218}, "southwest": {"lat": 38.6049859, "lng": -90.3040719}}, "viewport": {"northeast": {"lat": 38.6463509, "lng": -90.234218}, "southwest": {"lat": 38.6049859, "lng": -90.3040719}}, "location": {"lat": 38.6212468, "lng": -90.2526163}}, "address_components": [{"long_name": "63110", "types": ["postal_code"], "short_name": "63110"}, {"long_name": "St. Louis", "types": ["locality", "political"], "short_name": "St. Louis"}, {"long_name": "Missouri", "types": ["administrative_area_level_1", "political"], "short_name": "MO"}, {"long_name": "United States", "types": ["country", "political"], "short_name": "US"}], "place_id": "ChIJGQdMVhq12IcRhVI5otX-VFM", "formatted_address": "St. Louis, MO 63110, USA", "types": ["postal_code"]}, {"geometry": {"location_type": "APPROXIMATE", "bounds": {"northeast": {"lat": 39.5233688, "lng": -89.1383649}, "southwest": {"lat": 38.0034991, "lng": -91.4186369}}, "viewport": {"northeast": {"lat": 39.5233688, "lng": -89.1383649}, "southwest": {"lat": 38.0034991, "lng": -91.4186369}}, "location": {"lat": 38.8196814, "lng": -90.4502368}}, "address_components": [{"long_name": "St. Louis Metropolitan Area", "types": ["political"], "short_name": "St. Louis Metropolitan Area"}, {"long_name": "United States", "types": ["country", "political"], "short_name": "US"}], "place_id": "ChIJneBzzj4z34cRFGg2ez6q57o", "formatted_address": "St. Louis Metropolitan Area, USA", "types": ["political"]}, {"geometry": {"location_type": "APPROXIMATE", "bounds": {"northeast": {"lat": 40.61364, "lng": -89.09949399999999}, "southwest": {"lat": 35.9956829, "lng": -95.774704}}, "viewport": {"northeast": {"lat": 40.61364, "lng": -89.09949399999999}, "southwest": {"lat": 35.9956829, "lng": -95.774704}}, "location": {"lat": 37.9642529, "lng": -91.8318334}}, "address_components": [{"long_name": "Missouri", "types": ["administrative_area_level_1", "political"], "short_name": "MO"}, {"long_name": "United States", "types": ["country", "political"], "short_name": "US"}], "place_id": "ChIJfeMiSNXmwIcRcr1mBFnEW7U", "formatted_address": "Missouri, USA", "types": ["administrative_area_level_1", "political"]}, {"geometry": {"location_type": "APPROXIMATE", "bounds": {"northeast": {"lat": 71.5388001, "lng": -66.885417}, "southwest": {"lat": 18.7763, "lng": 170.5957}}, "viewport": {"northeast": {"lat": 49.38, "lng": -66.94}, "southwest": {"lat": 25.82, "lng": -124.39}}, "location": {"lat": 37.09024, "lng": -95.712891}}, "address_components": [{"long_name": "United States", "types": ["country", "political"], "short_name": "US"}], "place_id": "ChIJCzYy5IS16lQRQrfeQ5K5Oxw", "formatted_address": "United States", "types": ["country", "political"]}], "original": "Forest Park"}