{"status": "OK", "results": [{"geometry": {"location": {"lat": 46.8205645, "lng": -100.8811438}, "viewport": {"northeast": {"lat": 46.82191348029149, "lng": -100.8797948197085}, "southwest": {"lat": 46.81921551970849, "lng": -100.8824927802915}}, "location_type": "ROOFTOP"}, "address_components": [{"long_name": "601", "types": ["street_number"], "short_name": "601"}, {"long_name": "6th Avenue Southeast", "types": ["route"], "short_name": "6th Ave SE"}, {"long_name": "Mandan", "types": ["locality", "political"], "short_name": "Mandan"}, {"long_name": "Morton County", "types": ["administrative_area_level_2", "political"], "short_name": "Morton County"}, {"long_name": "North Dakota", "types": ["administrative_area_level_1", "political"], "short_name": "ND"}, {"long_name": "United States", "types": ["country", "political"], "short_name": "US"}, {"long_name": "58554", "types": ["postal_code"], "short_name": "58554"}], "place_id": "ChIJMw8Mp6-F11IRpk6-7KJrCb4", "formatted_address": "601 6th Ave SE, Mandan, ND 58554, USA", "types": ["street_address"]}, {"geometry": {"location_type": "APPROXIMATE", "bounds": {"northeast": {"lat": 46.87383200000001, "lng": -100.820661}, "southwest": {"lat": 46.785566, "lng": -100.9714081}}, "viewport": {"northeast": {"lat": 46.87383200000001, "lng": -100.820661}, "southwest": {"lat": 46.785566, "lng": -100.9714081}}, "location": {"lat": 46.8266603, "lng": -100.8895761}}, "address_components": [{"long_name": "Mandan", "types": ["locality", "political"], "short_name": "Mandan"}, {"long_name": "Mandan", "types": ["administrative_area_level_3", "political"], "short_name": "Mandan"}, {"long_name": "Morton County", "types": ["administrative_area_level_2", "political"], "short_name": "Morton County"}, {"long_name": "North Dakota", "types": ["administrative_area_level_1", "political"], "short_name": "ND"}, {"long_name": "United States", "types": ["country", "political"], "short_name": "US"}, {"long_name": "58554", "types": ["postal_code"], "short_name": "58554"}], "place_id": "ChIJ5Tgi0r2F11IRwHlpf1TQFLg", "formatted_address": "Mandan, ND 58554, USA", "types": ["locality", "political"]}, {"postcode_localities": ["Fort Rice", "Huff", "Mandan", "Saint Anthony"], "geometry": {"location_type": "APPROXIMATE", "bounds": {"northeast": {"lat": 47.05569, "lng": -100.537692}, "southwest": {"lat": 46.3972939, "lng": -101.280925}}, "viewport": {"northeast": {"lat": 47.05569, "lng": -100.537692}, "southwest": {"lat": 46.3972939, "lng": -101.280925}}, "location": {"lat": 46.8806365, "lng": -100.9943746}}, "place_id": "ChIJw7IBBE6Q11IRIKQHpULeiO0", "address_components": [{"long_name": "58554", "types": ["postal_code"], "short_name": "58554"}, {"long_name": "Mandan", "types": ["locality", "political"], "short_name": "Mandan"}, {"long_name": "North Dakota", "types": ["administrative_area_level_1", "political"], "short_name": "ND"}, {"long_name": "United States", "types": ["country", "political"], "short_name": "US"}], "formatted_address": "Mandan, ND 58554, USA", "types": ["postal_code"]}, {"geometry": {"location_type": "APPROXIMATE", "bounds": {"northeast": {"lat": 46.982955, "lng": -100.544136}, "southwest": {"lat": 46.2842189, "lng": -102.097205}}, "viewport": {"northeast": {"lat": 46.982955, "lng": -100.544136}, "southwest": {"lat": 46.2842189, "lng": -102.097205}}, "location": {"lat": 46.6683872, "lng": -101.1621736}}, "address_components": [{"long_name": "Morton County", "types": ["administrative_area_level_2", "political"], "short_name": "Morton County"}, {"long_name": "North Dakota", "types": ["administrative_area_level_1", "political"], "short_name": "ND"}, {"long_name": "United States", "types": ["country", "political"], "short_name": "US"}], "place_id": "ChIJJ9hlh63k11IR0oAXeMlOQmw", "formatted_address": "Morton County, ND, USA", "types": ["administrative_area_level_2", "political"]}, {"geometry": {"location_type": "APPROXIMATE", "bounds": {"northeast": {"lat": 47.3275359, "lng": -100.0749699}, "southwest": {"lat": 46.2842189, "lng": -102.09679}}, "viewport": {"northeast": {"lat": 47.3275359, "lng": -100.0749699}, "southwest": {"lat": 46.2842189, "lng": -102.09679}}, "location": {"lat": 46.7719452, "lng": -100.9020727}}, "address_components": [{"long_name": "Bismarck, ND", "types": ["political"], "short_name": "Bismarck, ND"}, {"long_name": "North Dakota", "types": ["administrative_area_level_1", "political"], "short_name": "ND"}, {"long_name": "United States", "types": ["country", "political"], "short_name": "US"}], "place_id": "ChIJvRwFG-mF11IRuiHsn1l61ao", "formatted_address": "Bismarck, ND, ND, USA", "types": ["political"]}, {"geometry": {"location_type": "APPROXIMATE", "bounds": {"northeast": {"lat": 49.000692, "lng": -96.554491}, "southwest": {"lat": 45.9350719, "lng": -104.05004}}, "viewport": {"northeast": {"lat": 49.000692, "lng": -96.554491}, "southwest": {"lat": 45.9350719, "lng": -104.05004}}, "location": {"lat": 47.5514926, "lng": -101.0020119}}, "address_components": [{"long_name": "North Dakota", "types": ["administrative_area_level_1", "political"], "short_name": "ND"}, {"long_name": "United States", "types": ["country", "political"], "short_name": "US"}], "place_id": "ChIJY-nYVxKD11IRyc9egzmahA0", "formatted_address": "North Dakota, USA", "types": ["administrative_area_level_1", "political"]}, {"geometry": {"location_type": "APPROXIMATE", "bounds": {"northeast": {"lat": 71.5388001, "lng": -66.885417}, "southwest": {"lat": 18.7763, "lng": 170.5957}}, "viewport": {"northeast": {"lat": 49.38, "lng": -66.94}, "southwest": {"lat": 25.82, "lng": -124.39}}, "location": {"lat": 37.09024, "lng": -95.712891}}, "address_components": [{"long_name": "United States", "types": ["country", "political"], "short_name": "US"}], "place_id": "ChIJCzYy5IS16lQRQrfeQ5K5Oxw", "formatted_address": "United States", "types": ["country", "political"]}], "original": "601 6th Ave SE"}