{"status": "OK", "results": [{"geometry": {"location": {"lat": 39.521075, "lng": -119.833438}, "viewport": {"northeast": {"lat": 39.5224239802915, "lng": -119.8320890197085}, "southwest": {"lat": 39.5197260197085, "lng": -119.8347869802915}}, "location_type": "ROOFTOP"}, "address_components": [{"long_name": "150", "types": ["street_number"], "short_name": "150"}, {"long_name": "Cowan Drive", "types": ["route"], "short_name": "Cowan Dr"}, {"long_name": "Reno", "types": ["locality", "political"], "short_name": "Reno"}, {"long_name": "Washoe County", "types": ["administrative_area_level_2", "political"], "short_name": "Washoe County"}, {"long_name": "Nevada", "types": ["administrative_area_level_1", "political"], "short_name": "NV"}, {"long_name": "United States", "types": ["country", "political"], "short_name": "US"}, {"long_name": "89509", "types": ["postal_code"], "short_name": "89509"}], "place_id": "ChIJi8BjyypHmYARVyemkcO4xp8", "formatted_address": "150 Cowan Dr, Reno, NV 89509, USA", "types": ["street_address"]}, {"geometry": {"location_type": "APPROXIMATE", "bounds": {"northeast": {"lat": 39.723436, "lng": -119.6993449}, "southwest": {"lat": 39.3924261, "lng": -120.0023379}}, "viewport": {"northeast": {"lat": 39.723436, "lng": -119.6993449}, "southwest": {"lat": 39.3924261, "lng": -120.0023379}}, "location": {"lat": 39.5296329, "lng": -119.8138027}}, "address_components": [{"long_name": "Reno", "types": ["locality", "political"], "short_name": "Reno"}, {"long_name": "Washoe County", "types": ["administrative_area_level_2", "political"], "short_name": "Washoe County"}, {"long_name": "Nevada", "types": ["administrative_area_level_1", "political"], "short_name": "NV"}, {"long_name": "United States", "types": ["country", "political"], "short_name": "US"}], "place_id": "ChIJnaCSkq5AmYARh_c4dM7FxUA", "formatted_address": "Reno, NV, USA", "types": ["locality", "political"]}, {"geometry": {"location_type": "APPROXIMATE", "bounds": {"northeast": {"lat": 39.5233729, "lng": -119.789202}, "southwest": {"lat": 39.4663398, "lng": -119.8646859}}, "viewport": {"northeast": {"lat": 39.5233729, "lng": -119.789202}, "southwest": {"lat": 39.4663398, "lng": -119.8646859}}, "location": {"lat": 39.4953787, "lng": -119.8236554}}, "address_components": [{"long_name": "89509", "types": ["postal_code"], "short_name": "89509"}, {"long_name": "Reno", "types": ["locality", "political"], "short_name": "Reno"}, {"long_name": "Washoe County", "types": ["administrative_area_level_2", "political"], "short_name": "Washoe County"}, {"long_name": "Nevada", "types": ["administrative_area_level_1", "political"], "short_name": "NV"}, {"long_name": "United States", "types": ["country", "political"], "short_name": "US"}], "place_id": "ChIJg37MaQJBmYARbWUrg6ZdYPA", "formatted_address": "Reno, NV 89509, USA", "types": ["postal_code"]}, {"geometry": {"location_type": "APPROXIMATE", "bounds": {"northeast": {"lat": 41.9975418, "lng": -119.1705441}, "southwest": {"lat": 39.165509, "lng": -120.0064729}}, "viewport": {"northeast": {"lat": 41.9975418, "lng": -119.1705441}, "southwest": {"lat": 39.165509, "lng": -120.0064729}}, "location": {"lat": 40.5608387, "lng": -119.6035495}}, "address_components": [{"long_name": "Washoe County", "types": ["administrative_area_level_2", "political"], "short_name": "Washoe County"}, {"long_name": "Nevada", "types": ["administrative_area_level_1", "political"], "short_name": "NV"}, {"long_name": "United States", "types": ["country", "political"], "short_name": "US"}], "place_id": "ChIJ4fdsvIAuo4ARgBhifeuEby4", "formatted_address": "Washoe County, NV, USA", "types": ["administrative_area_level_2", "political"]}, {"geometry": {"location_type": "APPROXIMATE", "bounds": {"northeast": {"lat": 41.997641, "lng": -119.168248}, "southwest": {"lat": 39.16378, "lng": -120.005746}}, "viewport": {"northeast": {"lat": 41.997641, "lng": -119.168248}, "southwest": {"lat": 39.16378, "lng": -120.005746}}, "location": {"lat": 40.5608387, "lng": -119.6035495}}, "address_components": [{"long_name": "Reno-Sparks, NV", "types": ["political"], "short_name": "Reno-Sparks, NV"}, {"long_name": "Nevada", "types": ["administrative_area_level_1", "political"], "short_name": "NV"}, {"long_name": "United States", "types": ["country", "political"], "short_name": "US"}], "place_id": "ChIJySCoVDBEnoARKKORH8JhN_0", "formatted_address": "Reno-Sparks, NV, NV, USA", "types": ["political"]}, {"geometry": {"location_type": "APPROXIMATE", "bounds": {"northeast": {"lat": 42.002207, "lng": -114.0396479}, "southwest": {"lat": 35.001857, "lng": -120.0064729}}, "viewport": {"northeast": {"lat": 42.002207, "lng": -114.0396479}, "southwest": {"lat": 35.001857, "lng": -120.0064729}}, "location": {"lat": 38.8026097, "lng": -116.419389}}, "address_components": [{"long_name": "Nevada", "types": ["administrative_area_level_1", "political"], "short_name": "NV"}, {"long_name": "United States", "types": ["country", "political"], "short_name": "US"}], "place_id": "ChIJcbTe-KEKmYARs5X8qooDR88", "formatted_address": "Nevada, USA", "types": ["administrative_area_level_1", "political"]}, {"geometry": {"location_type": "APPROXIMATE", "bounds": {"northeast": {"lat": 71.5388001, "lng": -66.885417}, "southwest": {"lat": 18.7763, "lng": 170.5957}}, "viewport": {"northeast": {"lat": 49.38, "lng": -66.94}, "southwest": {"lat": 25.82, "lng": -124.39}}, "location": {"lat": 37.09024, "lng": -95.712891}}, "address_components": [{"long_name": "United States", "types": ["country", "political"], "short_name": "US"}], "place_id": "ChIJCzYy5IS16lQRQrfeQ5K5Oxw", "formatted_address": "United States", "types": ["country", "political"]}], "original": "Idlewild Park"}