{"status": "OK", "results": [{"geometry": {"location_type": "RANGE_INTERPOLATED", "bounds": {"northeast": {"lat": 30.4154837, "lng": -88.8347939}, "southwest": {"lat": 30.4144523, "lng": -88.83664209999999}}, "viewport": {"northeast": {"lat": 30.4163169802915, "lng": -88.83436901970849}, "southwest": {"lat": 30.41361901970851, "lng": -88.8370669802915}}, "location": {"lat": 30.4148861, "lng": -88.83599219999999}}, "address_components": [{"long_name": "300-398", "types": ["street_number"], "short_name": "300-398"}, {"long_name": "Bienville Boulevard", "types": ["route"], "short_name": "US-90"}, {"long_name": "Ocean Springs", "types": ["locality", "political"], "short_name": "Ocean Springs"}, {"long_name": "Jackson County", "types": ["administrative_area_level_2", "political"], "short_name": "Jackson County"}, {"long_name": "Mississippi", "types": ["administrative_area_level_1", "political"], "short_name": "MS"}, {"long_name": "United States", "types": ["country", "political"], "short_name": "US"}, {"long_name": "39564", "types": ["postal_code"], "short_name": "39564"}], "place_id": "EjQzMDAtMzk4IEJpZW52aWxsZSBCbHZkLCBPY2VhbiBTcHJpbmdzLCBNUyAzOTU2NCwgVVNB", "formatted_address": "300-398 US-90, Ocean Springs, MS 39564, USA", "types": ["street_address"]}, {"geometry": {"location_type": "APPROXIMATE", "bounds": {"northeast": {"lat": 30.428014, "lng": -88.7194859}, "southwest": {"lat": 30.38179899999999, "lng": -88.86184290000001}}, "viewport": {"northeast": {"lat": 30.428014, "lng": -88.7194859}, "southwest": {"lat": 30.38179899999999, "lng": -88.86184290000001}}, "location": {"lat": 30.4113097, "lng": -88.8278057}}, "address_components": [{"long_name": "Ocean Springs", "types": ["locality", "political"], "short_name": "Ocean Springs"}, {"long_name": "Jackson County", "types": ["administrative_area_level_2", "political"], "short_name": "Jackson County"}, {"long_name": "Mississippi", "types": ["administrative_area_level_1", "political"], "short_name": "MS"}, {"long_name": "United States", "types": ["country", "political"], "short_name": "US"}, {"long_name": "39564", "types": ["postal_code"], "short_name": "39564"}], "place_id": "ChIJi2n9VQiLm4gR8gGP9lwlaUI", "formatted_address": "Ocean Springs, MS 39564, USA", "types": ["locality", "political"]}, {"geometry": {"location_type": "APPROXIMATE", "bounds": {"northeast": {"lat": 30.459356, "lng": -88.664712}, "southwest": {"lat": 30.3420341, "lng": -88.86184290000001}}, "viewport": {"northeast": {"lat": 30.459356, "lng": -88.664712}, "southwest": {"lat": 30.3420341, "lng": -88.86184290000001}}, "location": {"lat": 30.4069394, "lng": -88.7686382}}, "address_components": [{"long_name": "39564", "types": ["postal_code"], "short_name": "39564"}, {"long_name": "Ocean Springs", "types": ["locality", "political"], "short_name": "Ocean Springs"}, {"long_name": "Jackson County", "types": ["administrative_area_level_2", "political"], "short_name": "Jackson County"}, {"long_name": "Mississippi", "types": ["administrative_area_level_1", "political"], "short_name": "MS"}, {"long_name": "United States", "types": ["country", "political"], "short_name": "US"}], "place_id": "ChIJ5ZYhhgnxm4gRPv_GhYQgkCc", "formatted_address": "Ocean Springs, MS 39564, USA", "types": ["postal_code"]}, {"geometry": {"location_type": "APPROXIMATE", "bounds": {"northeast": {"lat": 30.736048, "lng": -88.38443099999999}, "southwest": {"lat": 30.146096, "lng": -88.884536}}, "viewport": {"northeast": {"lat": 30.736048, "lng": -88.38443099999999}, "southwest": {"lat": 30.146096, "lng": -88.884536}}, "location": {"lat": 30.4278212, "lng": -88.55653099999999}}, "address_components": [{"long_name": "Jackson County", "types": ["administrative_area_level_2", "political"], "short_name": "Jackson County"}, {"long_name": "Mississippi", "types": ["administrative_area_level_1", "political"], "short_name": "MS"}, {"long_name": "United States", "types": ["country", "political"], "short_name": "US"}], "place_id": "ChIJj6rgU4BYmogRWO1Lr8TYCLM", "formatted_address": "Jackson County, MS, USA", "types": ["administrative_area_level_2", "political"]}, {"geometry": {"location_type": "APPROXIMATE", "bounds": {"northeast": {"lat": 30.998785, "lng": -88.3939801}, "southwest": {"lat": 30.1965839, "lng": -88.8850381}}, "viewport": {"northeast": {"lat": 30.998785, "lng": -88.3939801}, "southwest": {"lat": 30.1965839, "lng": -88.8850381}}, "location": {"lat": 30.7048499, "lng": -88.63378399999999}}, "address_components": [{"long_name": "Pascagoula, MS", "types": ["political"], "short_name": "Pascagoula, MS"}, {"long_name": "Mississippi", "types": ["administrative_area_level_1", "political"], "short_name": "MS"}, {"long_name": "United States", "types": ["country", "political"], "short_name": "US"}], "place_id": "ChIJzbA2LtGPm4gRhcxXjwhyVrA", "formatted_address": "Pascagoula, MS, MS, USA", "types": ["political"]}, {"geometry": {"location_type": "APPROXIMATE", "bounds": {"northeast": {"lat": 34.9961091, "lng": -88.097888}, "southwest": {"lat": 30.146096, "lng": -91.6550089}}, "viewport": {"northeast": {"lat": 34.9961091, "lng": -88.097888}, "southwest": {"lat": 30.146096, "lng": -91.6550089}}, "location": {"lat": 32.3546679, "lng": -89.3985283}}, "address_components": [{"long_name": "Mississippi", "types": ["administrative_area_level_1", "political"], "short_name": "MS"}, {"long_name": "United States", "types": ["country", "political"], "short_name": "US"}], "place_id": "ChIJGdRK5OQyKIYR2qbc6X8XDWI", "formatted_address": "Mississippi, USA", "types": ["administrative_area_level_1", "political"]}, {"geometry": {"location_type": "APPROXIMATE", "bounds": {"northeast": {"lat": 71.5388001, "lng": -66.885417}, "southwest": {"lat": 18.7763, "lng": 170.5957}}, "viewport": {"northeast": {"lat": 49.38, "lng": -66.94}, "southwest": {"lat": 25.82, "lng": -124.39}}, "location": {"lat": 37.09024, "lng": -95.712891}}, "address_components": [{"long_name": "United States", "types": ["country", "political"], "short_name": "US"}], "place_id": "ChIJCzYy5IS16lQRQrfeQ5K5Oxw", "formatted_address": "United States", "types": ["country", "political"]}], "original": "Crooked Feather, 30-Foot-Tall Indian Head"}