{"status": "OK", "results": [{"geometry": {"location": {"lat": 34.3730266, "lng": -78.4033219}, "viewport": {"northeast": {"lat": 34.3743755802915, "lng": -78.40197291970848}, "southwest": {"lat": 34.3716776197085, "lng": -78.40467088029149}}, "location_type": "ROOFTOP"}, "address_components": [{"long_name": "7275", "types": ["street_number"], "short_name": "7275"}, {"long_name": "Old Lake Road", "types": ["route"], "short_name": "Old Lake Rd"}, {"long_name": "Bolton", "types": ["locality", "political"], "short_name": "Bolton"}, {"long_name": "Bolton", "types": ["administrative_area_level_3", "political"], "short_name": "Bolton"}, {"long_name": "Columbus County", "types": ["administrative_area_level_2", "political"], "short_name": "Columbus County"}, {"long_name": "North Carolina", "types": ["administrative_area_level_1", "political"], "short_name": "NC"}, {"long_name": "United States", "types": ["country", "political"], "short_name": "US"}, {"long_name": "28423", "types": ["postal_code"], "short_name": "28423"}], "place_id": "ChIJy_w_c8FDqokRNSVJ6T4gxEc", "formatted_address": "7275 Old Lake Rd, Bolton, NC 28423, USA", "types": ["street_address"]}, {"geometry": {"location_type": "APPROXIMATE", "bounds": {"northeast": {"lat": 34.404031, "lng": -78.23688190000001}, "southwest": {"lat": 34.204599, "lng": -78.5010099}}, "viewport": {"northeast": {"lat": 34.404031, "lng": -78.23688190000001}, "southwest": {"lat": 34.204599, "lng": -78.5010099}}, "location": {"lat": 34.2886269, "lng": -78.4069732}}, "address_components": [{"long_name": "28423", "types": ["postal_code"], "short_name": "28423"}, {"long_name": "Bolton", "types": ["locality", "political"], "short_name": "Bolton"}, {"long_name": "North Carolina", "types": ["administrative_area_level_1", "political"], "short_name": "NC"}, {"long_name": "United States", "types": ["country", "political"], "short_name": "US"}], "place_id": "ChIJE2nnXh1CqokRTOhAqSpXy-U", "formatted_address": "Bolton, NC 28423, USA", "types": ["postal_code"]}, {"geometry": {"location_type": "APPROXIMATE", "bounds": {"northeast": {"lat": 34.375399, "lng": -78.3276329}, "southwest": {"lat": 34.1392168, "lng": -78.5230299}}, "viewport": {"northeast": {"lat": 34.375399, "lng": -78.3276329}, "southwest": {"lat": 34.1392168, "lng": -78.5230299}}, "location": {"lat": 34.2447821, "lng": -78.4069732}}, "address_components": [{"long_name": "Bolton", "types": ["administrative_area_level_3", "political"], "short_name": "Bolton"}, {"long_name": "Columbus County", "types": ["administrative_area_level_2", "political"], "short_name": "Columbus County"}, {"long_name": "North Carolina", "types": ["administrative_area_level_1", "political"], "short_name": "NC"}, {"long_name": "United States", "types": ["country", "political"], "short_name": "US"}], "place_id": "ChIJTzbdTOVoqokRCPpASKxgibg", "formatted_address": "Bolton, NC, USA", "types": ["administrative_area_level_3", "political"]}, {"geometry": {"location_type": "APPROXIMATE", "bounds": {"northeast": {"lat": 34.483512, "lng": -78.1623499}, "southwest": {"lat": 33.9442419, "lng": -79.07116889999999}}, "viewport": {"northeast": {"lat": 34.483512, "lng": -78.1623499}, "southwest": {"lat": 33.9442419, "lng": -79.07116889999999}}, "location": {"lat": 34.2548658, "lng": -78.74762079999999}}, "address_components": [{"long_name": "Columbus County", "types": ["administrative_area_level_2", "political"], "short_name": "Columbus County"}, {"long_name": "North Carolina", "types": ["administrative_area_level_1", "political"], "short_name": "NC"}, {"long_name": "United States", "types": ["country", "political"], "short_name": "US"}], "place_id": "ChIJOUdLzJv2qokRX8cO2vRXnjA", "formatted_address": "Columbus County, NC, USA", "types": ["administrative_area_level_2", "political"]}, {"geometry": {"location_type": "APPROXIMATE", "bounds": {"northeast": {"lat": 36.5881568, "lng": -75.400119}, "southwest": {"lat": 33.7528778, "lng": -84.32186899999999}}, "viewport": {"northeast": {"lat": 36.5881568, "lng": -75.400119}, "southwest": {"lat": 33.7528778, "lng": -84.32186899999999}}, "location": {"lat": 35.7595731, "lng": -79.01929969999999}}, "address_components": [{"long_name": "North Carolina", "types": ["administrative_area_level_1", "political"], "short_name": "NC"}, {"long_name": "United States", "types": ["country", "political"], "short_name": "US"}], "place_id": "ChIJgRo4_MQfVIgRGa4i6fUwP60", "formatted_address": "North Carolina, USA", "types": ["administrative_area_level_1", "political"]}, {"geometry": {"location_type": "APPROXIMATE", "bounds": {"northeast": {"lat": 71.5388001, "lng": -66.885417}, "southwest": {"lat": 18.7763, "lng": 170.5957}}, "viewport": {"northeast": {"lat": 49.38, "lng": -66.94}, "southwest": {"lat": 25.82, "lng": -124.39}}, "location": {"lat": 37.09024, "lng": -95.712891}}, "address_components": [{"long_name": "United States", "types": ["country", "political"], "short_name": "US"}], "place_id": "ChIJCzYy5IS16lQRQrfeQ5K5Oxw", "formatted_address": "United States", "types": ["country", "political"]}], "original": "Waccamaw Siouan Tribal Housing"}