{"status": "OK", "results": [{"geometry": {"location_type": "ROOFTOP", "bounds": {"northeast": {"lat": 35.4848578, "lng": -83.3159087}, "southwest": {"lat": 35.4841637, "lng": -83.3169779}}, "viewport": {"northeast": {"lat": 35.4858597302915, "lng": -83.31509431970849}, "southwest": {"lat": 35.4831617697085, "lng": -83.3177922802915}}, "location": {"lat": 35.4845107, "lng": -83.3164433}}, "address_components": [{"long_name": "589", "types": ["street_number"], "short_name": "589"}, {"long_name": "Tsali Boulevard", "types": ["route"], "short_name": "Tsali Blvd"}, {"long_name": "Cherokee", "types": ["locality", "political"], "short_name": "Cherokee"}, {"long_name": "Charleston", "types": ["administrative_area_level_3", "political"], "short_name": "Charleston"}, {"long_name": "Swain County", "types": ["administrative_area_level_2", "political"], "short_name": "Swain County"}, {"long_name": "North Carolina", "types": ["administrative_area_level_1", "political"], "short_name": "NC"}, {"long_name": "United States", "types": ["country", "political"], "short_name": "US"}, {"long_name": "28719", "types": ["postal_code"], "short_name": "28719"}], "place_id": "ChIJT-EtiulDWYgRJsAOpa57puA", "formatted_address": "589 Tsali Blvd, Cherokee, NC 28719, USA", "types": ["premise"]}, {"geometry": {"location_type": "GEOMETRIC_CENTER", "bounds": {"northeast": {"lat": 35.4853759, "lng": -83.3158304}, "southwest": {"lat": 35.4848478, "lng": -83.31679679999999}}, "viewport": {"northeast": {"lat": 35.48646083029149, "lng": -83.31496461970849}, "southwest": {"lat": 35.48376286970849, "lng": -83.3176625802915}}, "location": {"lat": 35.4851643, "lng": -83.3162775}}, "address_components": [{"long_name": "State Road 1361", "types": ["route"], "short_name": "State Rd 1361"}, {"long_name": "Cherokee", "types": ["locality", "political"], "short_name": "Cherokee"}, {"long_name": "Charleston", "types": ["administrative_area_level_3", "political"], "short_name": "Charleston"}, {"long_name": "Swain County", "types": ["administrative_area_level_2", "political"], "short_name": "Swain County"}, {"long_name": "North Carolina", "types": ["administrative_area_level_1", "political"], "short_name": "NC"}, {"long_name": "United States", "types": ["country", "political"], "short_name": "US"}, {"long_name": "28719", "types": ["postal_code"], "short_name": "28719"}], "place_id": "ChIJvaZjIepDWYgRGPL1XPBQ_n4", "formatted_address": "State Rd 1361, Cherokee, NC 28719, USA", "types": ["route"]}, {"geometry": {"location_type": "APPROXIMATE", "bounds": {"northeast": {"lat": 35.5135049, "lng": -83.26441609999999}, "southwest": {"lat": 35.4519329, "lng": -83.3407769}}, "viewport": {"northeast": {"lat": 35.5135049, "lng": -83.26441609999999}, "southwest": {"lat": 35.4519329, "lng": -83.3407769}}, "location": {"lat": 35.4770574, "lng": -83.3205859}}, "address_components": [{"long_name": "Cherokee", "types": ["locality", "political"], "short_name": "Cherokee"}, {"long_name": "Swain County", "types": ["administrative_area_level_2", "political"], "short_name": "Swain County"}, {"long_name": "North Carolina", "types": ["administrative_area_level_1", "political"], "short_name": "NC"}, {"long_name": "United States", "types": ["country", "political"], "short_name": "US"}], "place_id": "ChIJN4TWkxBDWYgRlha-xrhXmaM", "formatted_address": "Cherokee, NC, USA", "types": ["locality", "political"]}, {"geometry": {"location_type": "APPROXIMATE", "bounds": {"northeast": {"lat": 35.6959569, "lng": -83.1666489}, "southwest": {"lat": 35.455718, "lng": -83.43494}}, "viewport": {"northeast": {"lat": 35.6959569, "lng": -83.1666489}, "southwest": {"lat": 35.455718, "lng": -83.43494}}, "location": {"lat": 35.5749683, "lng": -83.2720082}}, "address_components": [{"long_name": "28719", "types": ["postal_code"], "short_name": "28719"}, {"long_name": "Cherokee", "types": ["locality", "political"], "short_name": "Cherokee"}, {"long_name": "North Carolina", "types": ["administrative_area_level_1", "political"], "short_name": "NC"}, {"long_name": "United States", "types": ["country", "political"], "short_name": "US"}], "place_id": "ChIJ2UnlV_ZCWYgR0O1qa7V1CDY", "formatted_address": "Cherokee, NC 28719, USA", "types": ["postal_code"]}, {"geometry": {"location_type": "APPROXIMATE", "bounds": {"northeast": {"lat": 35.6959569, "lng": -83.1562671}, "southwest": {"lat": 35.3169271, "lng": -83.5235709}}, "viewport": {"northeast": {"lat": 35.6959569, "lng": -83.1562671}, "southwest": {"lat": 35.3169271, "lng": -83.5235709}}, "location": {"lat": 35.59794309999999, "lng": -83.2934086}}, "address_components": [{"long_name": "Charleston", "types": ["administrative_area_level_3", "political"], "short_name": "Charleston"}, {"long_name": "Swain County", "types": ["administrative_area_level_2", "political"], "short_name": "Swain County"}, {"long_name": "North Carolina", "types": ["administrative_area_level_1", "political"], "short_name": "NC"}, {"long_name": "United States", "types": ["country", "political"], "short_name": "US"}], "place_id": "ChIJw73DFXlEWYgRrmsYbSlf_JE", "formatted_address": "Charleston, NC, USA", "types": ["administrative_area_level_3", "political"]}, {"geometry": {"location_type": "APPROXIMATE", "bounds": {"northeast": {"lat": 35.6959569, "lng": -83.1562671}, "southwest": {"lat": 35.2791269, "lng": -83.953383}}, "viewport": {"northeast": {"lat": 35.6959569, "lng": -83.1562671}, "southwest": {"lat": 35.2791269, "lng": -83.953383}}, "location": {"lat": 35.4328955, "lng": -83.46435509999999}}, "address_components": [{"long_name": "Swain County", "types": ["administrative_area_level_2", "political"], "short_name": "Swain County"}, {"long_name": "North Carolina", "types": ["administrative_area_level_1", "political"], "short_name": "NC"}, {"long_name": "United States", "types": ["country", "political"], "short_name": "US"}], "place_id": "ChIJ_YFf71FKWYgRzQgofFiCIL8", "formatted_address": "Swain County, NC, USA", "types": ["administrative_area_level_2", "political"]}, {"geometry": {"location_type": "APPROXIMATE", "bounds": {"northeast": {"lat": 36.5881568, "lng": -75.400119}, "southwest": {"lat": 33.7528778, "lng": -84.32186899999999}}, "viewport": {"northeast": {"lat": 36.5881568, "lng": -75.400119}, "southwest": {"lat": 33.7528778, "lng": -84.32186899999999}}, "location": {"lat": 35.7595731, "lng": -79.01929969999999}}, "address_components": [{"long_name": "North Carolina", "types": ["administrative_area_level_1", "political"], "short_name": "NC"}, {"long_name": "United States", "types": ["country", "political"], "short_name": "US"}], "place_id": "ChIJgRo4_MQfVIgRGa4i6fUwP60", "formatted_address": "North Carolina, USA", "types": ["administrative_area_level_1", "political"]}, {"geometry": {"location_type": "APPROXIMATE", "bounds": {"northeast": {"lat": 71.5388001, "lng": -66.885417}, "southwest": {"lat": 18.7763, "lng": 170.5957}}, "viewport": {"northeast": {"lat": 49.38, "lng": -66.94}, "southwest": {"lat": 25.82, "lng": -124.39}}, "location": {"lat": 37.09024, "lng": -95.712891}}, "address_components": [{"long_name": "United States", "types": ["country", "political"], "short_name": "US"}], "place_id": "ChIJCzYy5IS16lQRQrfeQ5K5Oxw", "formatted_address": "United States", "types": ["country", "political"]}, {"geometry": {"location": {"lat": 35.4839511, "lng": -83.3172251}, "viewport": {"northeast": {"lat": 35.48530008029149, "lng": -83.31587611970849}, "southwest": {"lat": 35.4826021197085, "lng": -83.31857408029151}}, "location_type": "ROOFTOP"}, "address_components": [{"long_name": "Cherokee Indian Fair Grounds", "types": ["establishment", "point_of_interest", "political"], "short_name": "Cherokee Indian Fair Grounds"}, {"long_name": "545", "types": ["street_number"], "short_name": "545"}, {"long_name": "Tsali Boulevard", "types": ["route"], "short_name": "Tsali Blvd"}, {"long_name": "Cherokee", "types": ["locality", "political"], "short_name": "Cherokee"}, {"long_name": "Charleston", "types": ["administrative_area_level_3", "political"], "short_name": "Charleston"}, {"long_name": "Swain County", "types": ["administrative_area_level_2", "political"], "short_name": "Swain County"}, {"long_name": "North Carolina", "types": ["administrative_area_level_1", "political"], "short_name": "NC"}, {"long_name": "United States", "types": ["country", "political"], "short_name": "US"}, {"long_name": "28719", "types": ["postal_code"], "short_name": "28719"}], "place_id": "ChIJE8ntkOlDWYgRqfJRzeybsoc", "formatted_address": "Cherokee Indian Fair Grounds, 545 Tsali Blvd, Cherokee, NC 28719, USA", "types": ["establishment", "point_of_interest", "political"]}], "original": "Museum of the Cherokee Indian"}