{"status": "OK", "results": [{"geometry": {"location": {"lat": 40.063813, "lng": -80.72110699999999}, "viewport": {"northeast": {"lat": 40.06516198029149, "lng": -80.7197580197085}, "southwest": {"lat": 40.0624640197085, "lng": -80.7224559802915}}, "location_type": "ROOFTOP"}, "address_components": [{"long_name": "44", "types": ["street_number"], "short_name": "44"}, {"long_name": "16th Street", "types": ["route"], "short_name": "16th St"}, {"long_name": "Wheeling", "types": ["locality", "political"], "short_name": "Wheeling"}, {"long_name": "2", "types": ["administrative_area_level_3", "political"], "short_name": "2"}, {"long_name": "Ohio County", "types": ["administrative_area_level_2", "political"], "short_name": "Ohio County"}, {"long_name": "West Virginia", "types": ["administrative_area_level_1", "political"], "short_name": "WV"}, {"long_name": "United States", "types": ["country", "political"], "short_name": "US"}, {"long_name": "26003", "types": ["postal_code"], "short_name": "26003"}, {"long_name": "3661", "types": ["postal_code_suffix"], "short_name": "3661"}], "place_id": "ChIJSbKhBiraNYgRwIx0w9NPWr0", "formatted_address": "44 16th St, Wheeling, WV 26003, USA", "types": ["street_address"]}, {"geometry": {"location_type": "APPROXIMATE", "bounds": {"northeast": {"lat": 40.152488, "lng": -80.642957}, "southwest": {"lat": 40.0160871, "lng": -80.7392359}}, "viewport": {"northeast": {"lat": 40.152488, "lng": -80.642957}, "southwest": {"lat": 40.0160871, "lng": -80.7392359}}, "location": {"lat": 40.0639616, "lng": -80.7209149}}, "address_components": [{"long_name": "Wheeling", "types": ["locality", "political"], "short_name": "Wheeling"}, {"long_name": "Ohio County", "types": ["administrative_area_level_2", "political"], "short_name": "Ohio County"}, {"long_name": "West Virginia", "types": ["administrative_area_level_1", "political"], "short_name": "WV"}, {"long_name": "United States", "types": ["country", "political"], "short_name": "US"}, {"long_name": "26003", "types": ["postal_code"], "short_name": "26003"}], "place_id": "ChIJ6cWQe8faNYgRmeXW7Gfth7s", "formatted_address": "Wheeling, WV 26003, USA", "types": ["locality", "political"]}, {"geometry": {"location_type": "APPROXIMATE", "bounds": {"northeast": {"lat": 40.097637, "lng": -80.65948209999999}, "southwest": {"lat": 40.0314639, "lng": -80.7392359}}, "viewport": {"northeast": {"lat": 40.097637, "lng": -80.65948209999999}, "southwest": {"lat": 40.0314639, "lng": -80.7392359}}, "location": {"lat": 40.07305540000001, "lng": -80.70480839999999}}, "address_components": [{"long_name": "2", "types": ["administrative_area_level_3", "political"], "short_name": "2"}, {"long_name": "Ohio County", "types": ["administrative_area_level_2", "political"], "short_name": "Ohio County"}, {"long_name": "West Virginia", "types": ["administrative_area_level_1", "political"], "short_name": "WV"}, {"long_name": "United States", "types": ["country", "political"], "short_name": "US"}, {"long_name": "26003", "types": ["postal_code"], "short_name": "26003"}], "place_id": "ChIJe7fiLjbaNYgRC2AukkFyUU4", "formatted_address": "2, WV 26003, USA", "types": ["administrative_area_level_3", "political"]}, {"geometry": {"location_type": "APPROXIMATE", "bounds": {"northeast": {"lat": 40.1861559, "lng": -80.518896}, "southwest": {"lat": 40.01640990000001, "lng": -80.7392359}}, "viewport": {"northeast": {"lat": 40.1861559, "lng": -80.518896}, "southwest": {"lat": 40.01640990000001, "lng": -80.7392359}}, "location": {"lat": 40.1111311, "lng": -80.610489}}, "address_components": [{"long_name": "Ohio County", "types": ["administrative_area_level_2", "political"], "short_name": "Ohio County"}, {"long_name": "West Virginia", "types": ["administrative_area_level_1", "political"], "short_name": "WV"}, {"long_name": "United States", "types": ["country", "political"], "short_name": "US"}], "place_id": "ChIJr2VvQTTFNYgRkNAdHk80bV4", "formatted_address": "Ohio County, WV, USA", "types": ["administrative_area_level_2", "political"]}, {"postcode_localities": ["Bethlehem", "Overbrook", "Wheeling"], "geometry": {"location_type": "APPROXIMATE", "bounds": {"northeast": {"lat": 40.2021869, "lng": -80.526128}, "southwest": {"lat": 39.949186, "lng": -80.739229}}, "viewport": {"northeast": {"lat": 40.2021869, "lng": -80.526128}, "southwest": {"lat": 39.949186, "lng": -80.739229}}, "location": {"lat": 40.1553514, "lng": -80.6548882}}, "place_id": "ChIJuZFbUMPaNYgRSuIUROxGOMc", "address_components": [{"long_name": "26003", "types": ["postal_code"], "short_name": "26003"}, {"long_name": "Wheeling", "types": ["locality", "political"], "short_name": "Wheeling"}, {"long_name": "West Virginia", "types": ["administrative_area_level_1", "political"], "short_name": "WV"}, {"long_name": "United States", "types": ["country", "political"], "short_name": "US"}], "formatted_address": "Wheeling, WV 26003, USA", "types": ["postal_code"]}, {"geometry": {"location_type": "APPROXIMATE", "bounds": {"northeast": {"lat": 40.1857189, "lng": -80.5188909}, "southwest": {"lat": 39.7208124, "lng": -81.2373159}}, "viewport": {"northeast": {"lat": 40.1857189, "lng": -80.5188909}, "southwest": {"lat": 39.7208124, "lng": -81.2373159}}, "location": {"lat": 40.0325848, "lng": -80.89865019999999}}, "address_components": [{"long_name": "Wheeling, WV-OH", "types": ["political"], "short_name": "Wheeling, WV-OH"}, {"long_name": "United States", "types": ["country", "political"], "short_name": "US"}], "place_id": "ChIJpVmeVxB1NogRITanl-K6DXQ", "formatted_address": "Wheeling, WV-OH, USA", "types": ["political"]}, {"geometry": {"location_type": "APPROXIMATE", "bounds": {"northeast": {"lat": 40.638801, "lng": -77.7189679}, "southwest": {"lat": 37.2015399, "lng": -82.644413}}, "viewport": {"northeast": {"lat": 40.638801, "lng": -77.7189679}, "southwest": {"lat": 37.2015399, "lng": -82.644413}}, "location": {"lat": 38.5976262, "lng": -80.4549026}}, "address_components": [{"long_name": "West Virginia", "types": ["administrative_area_level_1", "political"], "short_name": "WV"}, {"long_name": "United States", "types": ["country", "political"], "short_name": "US"}], "place_id": "ChIJRQnL1KVUSogRQzrN3mjHALs", "formatted_address": "West Virginia, USA", "types": ["administrative_area_level_1", "political"]}, {"geometry": {"location_type": "APPROXIMATE", "bounds": {"northeast": {"lat": 71.5388001, "lng": -66.885417}, "southwest": {"lat": 18.7763, "lng": 170.5957}}, "viewport": {"northeast": {"lat": 49.38, "lng": -66.94}, "southwest": {"lat": 25.82, "lng": -124.39}}, "location": {"lat": 37.09024, "lng": -95.712891}}, "address_components": [{"long_name": "United States", "types": ["country", "political"], "short_name": "US"}], "place_id": "ChIJCzYy5IS16lQRQrfeQ5K5Oxw", "formatted_address": "United States", "types": ["country", "political"]}], "original": "Wheeling"}