{"status": "OK", "results": [{"geometry": {"location": {"lat": 41.2504638, "lng": -77.00445700000002}, "viewport": {"northeast": {"lat": 41.25181278029149, "lng": -77.00310801970852}, "southwest": {"lat": 41.2491148197085, "lng": -77.00580598029153}}, "location_type": "ROOFTOP"}, "address_components": [{"long_name": "1001", "types": ["street_number"], "short_name": "1001"}, {"long_name": "Packer Street", "types": ["route"], "short_name": "Packer St"}, {"long_name": "East End", "types": ["neighborhood", "political"], "short_name": "East End"}, {"long_name": "Williamsport", "types": ["locality", "political"], "short_name": "Williamsport"}, {"long_name": "Lycoming County", "types": ["administrative_area_level_2", "political"], "short_name": "Lycoming County"}, {"long_name": "Pennsylvania", "types": ["administrative_area_level_1", "political"], "short_name": "PA"}, {"long_name": "United States", "types": ["country", "political"], "short_name": "US"}, {"long_name": "17701", "types": ["postal_code"], "short_name": "17701"}], "place_id": "ChIJS52pVxumz4kRhi20Nq2ZwKg", "formatted_address": "1001 Packer St, Williamsport, PA 17701, USA", "types": ["street_address"]}, {"geometry": {"location_type": "APPROXIMATE", "bounds": {"northeast": {"lat": 41.2563233, "lng": -76.9815445}, "southwest": {"lat": 41.2408842, "lng": -77.0088947}}, "viewport": {"northeast": {"lat": 41.2563233, "lng": -76.9815445}, "southwest": {"lat": 41.2408842, "lng": -77.0088947}}, "location": {"lat": 41.2475094, "lng": -76.9959872}}, "address_components": [{"long_name": "East End", "types": ["neighborhood", "political"], "short_name": "East End"}, {"long_name": "Williamsport", "types": ["locality", "political"], "short_name": "Williamsport"}, {"long_name": "Lycoming County", "types": ["administrative_area_level_2", "political"], "short_name": "Lycoming County"}, {"long_name": "Pennsylvania", "types": ["administrative_area_level_1", "political"], "short_name": "PA"}, {"long_name": "United States", "types": ["country", "political"], "short_name": "US"}, {"long_name": "17701", "types": ["postal_code"], "short_name": "17701"}], "place_id": "ChIJ0yJfQRCmz4kRUdT_1Tee4Rs", "formatted_address": "East End, Williamsport, PA 17701, USA", "types": ["neighborhood", "political"]}, {"geometry": {"location_type": "APPROXIMATE", "bounds": {"northeast": {"lat": 41.2642699, "lng": -76.981545}, "southwest": {"lat": 41.2180199, "lng": -77.09556599999999}}, "viewport": {"northeast": {"lat": 41.2642699, "lng": -76.981545}, "southwest": {"lat": 41.2180199, "lng": -77.09556599999999}}, "location": {"lat": 41.2411897, "lng": -77.00107860000001}}, "address_components": [{"long_name": "Williamsport", "types": ["locality", "political"], "short_name": "Williamsport"}, {"long_name": "Lycoming County", "types": ["administrative_area_level_2", "political"], "short_name": "Lycoming County"}, {"long_name": "Pennsylvania", "types": ["administrative_area_level_1", "political"], "short_name": "PA"}, {"long_name": "United States", "types": ["country", "political"], "short_name": "US"}], "place_id": "ChIJtyLqAcOUz4kRib2hrxTk9Ys", "formatted_address": "Williamsport, PA, USA", "types": ["locality", "political"]}, {"geometry": {"location_type": "APPROXIMATE", "bounds": {"northeast": {"lat": 41.4957, "lng": -76.6983499}, "southwest": {"lat": 41.218075, "lng": -77.123915}}, "viewport": {"northeast": {"lat": 41.4957, "lng": -76.6983499}, "southwest": {"lat": 41.218075, "lng": -77.123915}}, "location": {"lat": 41.24118199999999, "lng": -77.0010648}}, "address_components": [{"long_name": "17701", "types": ["postal_code"], "short_name": "17701"}, {"long_name": "Williamsport", "types": ["locality", "political"], "short_name": "Williamsport"}, {"long_name": "Pennsylvania", "types": ["administrative_area_level_1", "political"], "short_name": "PA"}, {"long_name": "United States", "types": ["country", "political"], "short_name": "US"}], "place_id": "ChIJ7aGVAcOUz4kRN7O3Vviv9Rs", "formatted_address": "Williamsport, PA 17701, USA", "types": ["postal_code"]}, {"geometry": {"location_type": "APPROXIMATE", "bounds": {"northeast": {"lat": 41.596793, "lng": -76.447597}, "southwest": {"lat": 41.0687079, "lng": -77.599605}}, "viewport": {"northeast": {"lat": 41.596793, "lng": -76.447597}, "southwest": {"lat": 41.0687079, "lng": -77.599605}}, "location": {"lat": 41.2720004, "lng": -77.10249019999999}}, "address_components": [{"long_name": "Williamsport, PA", "types": ["political"], "short_name": "Williamsport, PA"}, {"long_name": "Lycoming County", "types": ["administrative_area_level_2", "political"], "short_name": "Lycoming County"}, {"long_name": "Pennsylvania", "types": ["administrative_area_level_1", "political"], "short_name": "PA"}, {"long_name": "United States", "types": ["country", "political"], "short_name": "US"}], "place_id": "ChIJlwX7ECmuz4kRXelqLOsPhyI", "formatted_address": "Williamsport, PA, PA, USA", "types": ["political"]}, {"geometry": {"location_type": "APPROXIMATE", "bounds": {"northeast": {"lat": 41.596868, "lng": -76.447597}, "southwest": {"lat": 41.0687079, "lng": -77.599605}}, "viewport": {"northeast": {"lat": 41.596868, "lng": -76.447597}, "southwest": {"lat": 41.0687079, "lng": -77.599605}}, "location": {"lat": 41.2720004, "lng": -77.10249019999999}}, "address_components": [{"long_name": "Lycoming County", "types": ["administrative_area_level_2", "political"], "short_name": "Lycoming County"}, {"long_name": "Pennsylvania", "types": ["administrative_area_level_1", "political"], "short_name": "PA"}, {"long_name": "United States", "types": ["country", "political"], "short_name": "US"}], "place_id": "ChIJOZ1ZQsqbz4kRQYbuLs1kpRw", "formatted_address": "Lycoming County, PA, USA", "types": ["administrative_area_level_2", "political"]}, {"geometry": {"location_type": "APPROXIMATE", "bounds": {"northeast": {"lat": 42.516072, "lng": -74.6895018}, "southwest": {"lat": 39.7197989, "lng": -80.51989499999999}}, "viewport": {"northeast": {"lat": 42.516072, "lng": -74.6895018}, "southwest": {"lat": 39.7197989, "lng": -80.51989499999999}}, "location": {"lat": 41.2033216, "lng": -77.1945247}}, "address_components": [{"long_name": "Pennsylvania", "types": ["administrative_area_level_1", "political"], "short_name": "PA"}, {"long_name": "United States", "types": ["country", "political"], "short_name": "US"}], "place_id": "ChIJieUyHiaALYgRPbQiUEchRsI", "formatted_address": "Pennsylvania, USA", "types": ["administrative_area_level_1", "political"]}, {"geometry": {"location_type": "APPROXIMATE", "bounds": {"northeast": {"lat": 71.5388001, "lng": -66.885417}, "southwest": {"lat": 18.7763, "lng": 170.5957}}, "viewport": {"northeast": {"lat": 49.38, "lng": -66.94}, "southwest": {"lat": 25.82, "lng": -124.39}}, "location": {"lat": 37.09024, "lng": -95.712891}}, "address_components": [{"long_name": "United States", "types": ["country", "political"], "short_name": "US"}], "place_id": "ChIJCzYy5IS16lQRQrfeQ5K5Oxw", "formatted_address": "United States", "types": ["country", "political"]}], "original": "Brandon Park"}